"name....dattg.Name","nCompleteY....dattg.nCompleteY","longitude","latitude","SLR","SWL_AEP1PC","SWL_MFSLR_50","SWL_MFSLR_10","SWL_MFSLR_90"
"'albany-62120-aus-bom'",51,117.8926,-35.0337,1,2.14,3660869.24,3692997.41,3629020.59
"'batemans_bay_princess_jetty-216410-aus-bom'",22,150.1779,-35.7049,1,2.43,918498.55,932667.31,904545.04
"'bermagui-219470-aus-bom'",29,150.0715333,-36.42633887,1,2.4,9568387.59,9678493.08,9459534.69
"'booby_island-336a-aus-uhslc'",34,141.91,-10.603,1,3.42,24183.15,24589.31,23783.7
"'booby_island-58230-aus-bom'",34,141.9101,-10.6026,1,3.42,24183.15,24589.31,23783.7
"'botany_bay-60390-aus-bom'",33,151.2204,-33.9684,1,2.38,1039696073.05,1048651851.42,1030816779.53
"'bowen-59320-aus-bom'",35,148.25,-20.025,1,3.39,8776.24,8947.86,8607.91
"'brisbane_bar-59980-aus-bom'",49,153.1719,-27.3608,1,2.72,2746861651.84,2764709005.02,2729129510.79
"'brisbane-331a-aus-uhslc'",49,153.167,-27.367,1,2.72,2746861651.84,2764709005.02,2729129510.79
"'broome-166a-aus-uhslc'",44,122.218,-18.002,1,6.59,571.38,584.18,558.86
"'broome-62650-aus-bom'",44,122.2186,-18.0008,1,6.59,571.38,584.18,558.86
"'brunswick_heads-202403-aus-bom'",30,153.55211,-28.53681115,1,2.5,2279285.23,2310191.99,2248791.94
"'bunbury-62190-aus-bom'",53,115.66,-33.3234,1,2.44,4187.21,4255.8,4119.72
"'bundaberg_burnett_heads-59820-aus-bom'",53,152.3833,-24.7667,1,3.27,36666.2,37142.79,36195.74
"'bundaberg-332a-aus-uhslc'",53,152.38,-24.767,1,3.27,36666.2,37142.79,36195.74
"'burnie-344a-aus-uhslc'",43,145.915,-41.05,1,3.13,109243.06,110623.92,107879.45
"'burnie-60910-aus-bom'",43,145.9111,-41.0528,1,3.13,109243.06,110623.92,107879.45
"'caddadup-dvcad01-aus-bom'",25,115.643056,-32.609444,1,2.05,53849.47,54783.67,52931.21
"'cairns-59060-aus-bom'",47,145.78,-16.9267,1,3.11,37496.91,38022.82,36978.28
"'cape_bouvard-dvbvd01-aus-bom'",20,115.629983,-32.601376,1,2.2,28400.72,29020.36,27794.32
"'cape_ferguson-343a-aus-uhslc'",30,147.058,-19.277,1,3.54,4759.57,4860.4,4660.84
"'cape_ferguson-59260-aus-bom'",35,147.0583,-19.2767,1,3.47,7837.91,7984.24,7694.27
"'cape_ferguson-h033007a-aus-bom'",30,147.05,-19.27,1,3.54,4759.57,4860.4,4660.84
"'cardwell-h035012a-aus-bom'",25,146.03,-18.25,1,3.91,366.46,380.14,353.28
"'carnarvon-167a-aus-uhslc'",41,113.652,-24.898,1,2.5,15463.63,15726.77,15204.9
"'carnarvon-62370-aus-bom'",41,113.651,-24.8987,1,2.5,15463.63,15726.77,15204.9
"'clump_point-59168-aus-bom'",35,146.1053,-17.8515,1,3.3,15089.19,15356.49,14826.55
"'cocos-171a-aus-uhslc'",32,96.892,-12.117,1,2.16,17569566.51,17744778.89,17396084.17
"'coffs_harbour-205470-aus-bom'",20,153.1460611,-30.30285837,1,2.58,2488305.09,2526181.25,2450996.83
"'cooktown-58940-aus-bom'",27,145.25,-15.4667,1,2.98,218245.83,221709.37,214836.4
"'cooktown-h066003a-aus-bom'",20,145.25,-15.45,1,3.09,22953.41,23474.7,22443.7
"'crookhaven_heads-215408-aus-bom'",25,150.7592,-34.9066,1,2.38,911481.76,925292.22,897877.44
"crowdy_head_fuel_wharf_decomm-208470-aus-csiro",24,152.750811,-31.839236,1,2.58,1766839.7,1790922.29,1743080.95
"'darwin-168a-aus-uhslc'",56,130.847,-12.472,1,5.06,313607.83,316853.36,310395.53
"'darwin-63230-aus-bom'",56,130.8459,-12.4718,1,5.06,313607.83,316853.36,310395.53
"'devonport-60930-aus-bom'",28,146.3833,-41.15,1,3.13,147907.66,150246.35,145605.36
"'eden-60530-aus-bom'",31,149.9083,-37.0712,1,2.44,1998209.76,2022974.51,1973748.18
"'esperance-176a-aus-uhslc'",54,121.897,-33.87,1,2.28,210576.01,212838.35,208337.71
"'esperance-62080-aus-bom'",54,121.8954,-33.8709,1,2.28,210576.01,212838.35,208337.71
"'exmouth-62435-aus-bom'",25,114.1409,-21.9549,1,3.06,1172.3,1208.64,1137.04
"'forster-209402-aus-bom'",24,152.5082112,-32.17398888,1,2.18,127406760.94,128729388.25,126097722.94
"'fort_denison-333a-aus-uhslc'",103,151.227,-33.855,1,2.42,64527184.74,64875609.66,64180631.09
"'fremantle-175a-aus-uhslc'",110,115.733,-32.05,1,2.28,15148.24,15292.19,15005.64
"'fremantle-62230-aus-bom'",110,115.7395,-32.0558,1,2.28,15148.24,15292.19,15005.64
"'geelong-60770-aus-bom'",43,144.3633,-38.1467,1,2.15,805233.45,813921.89,796637.75
"'georgetown-60950-aus-bom'",28,146.82,-41.11,1,3.11,96709.95,98213.63,95229.29
"'geraldton-62290-aus-bom'",54,114.6019,-28.776,1,2.16,309578.7,312935.73,306257.69
"'gladstone-59750-aus-bom'",43,151.25,-23.8333,1,3.79,51201.43,51885.5,50526.38
"'gold_coast_southport-60051-aus-bom'",22,153.4167,-27.9667,1,2.4,222589087.27,225038438.76,220166394.88
"'goods_island-58200-aus-bom'",27,142.1486,-10.5639,1,3.44,4849.32,4957.5,4743.49
"'groote_eylandt-145a-aus-uhslc'",34,136.417,-13.86,1,3.04,323.29,333.26,313.62
"'harvey-dvhar01-aus-bom'",27,115.6761,-32.6835,1,2.16,4243.11,4333.43,4154.67
"'hay_point-59511-aus-bom'",35,149.3033,-21.2683,1,5.05,9950.83,10135.65,9769.37
"'hillarys-132a-aus-uhslc'",28,115.738,-31.825,1,2.25,29468.29,29987.24,28958.31
"'hillarys-62237-aus-bom'",28,115.7386,-31.8256,1,2.25,29468.29,29987.24,28958.31
"'hobart-339a-aus-uhslc'",46,147.342,-42.877,1,2.32,144127.47,145922.42,142354.6
"'hobart-61220-aus-bom'",46,147.341,-42.8773,1,2.32,144127.47,145922.42,142354.6
"'home_island-46280-aus-bom'",32,96.8919,-12.1167,1,2.16,17569566.51,17744778.89,17396084.17
"'hovell_pile-60721-aus-bom'",27,144.8987,-38.3271,1,2.15,396130.14,402180.28,390171.01
"'ince_point-58140-aus-bom'",28,142.3117,-10.575,1,3.53,1043.21,1070.74,1016.38
"'jervis_bay-216470-aus-bom'",27,150.7076,-35.12200281,1,2.38,92193263.51,93162815.44,91233801.77
"'jurien_bay-jujur01-aus-bom'",28,115.0428,-30.2872,1,2.16,466877.22,473753.29,460100.96
"'karumba-63580-aus-bom'",33,140.8333,-17.4917,1,4.27,265.04,273.12,257.2
"'lakes_entrance_inner_bullock_island-6057a-aus-bom'",33,147.9731,-37.8852,1,2.19,14386.34,14636.65,14140.31
"'lord_howe_island-57720-aus-bom'",36,159.0582,-31.5236,1,2.66,3738690.82,3780476.83,3697366.67
"'lord_howe-399a-aus-uhslc'",36,159.067,-31.517,1,2.66,3738690.82,3780476.83,3697366.67
"'lord_howe-399b-aus-uhslc'",36,159.067,-31.517,1,2.66,3804529.7,3847306.01,3762228.99
"'lorne-60790-aus-bom'",26,143.9888,-38.5472,1,2.62,17211427.19,17421702.18,17003690.16
"'lucinda_offshore-59200-aus-bom'",33,146.385,-18.5217,1,3.45,16289.82,16583.3,16001.54
"'mackay_outer_harbour-59510-aus-bom'",48,149.2333,-21.1167,1,4.92,5955.65,6056.39,5856.59
"'melbourne_williamstown-60780-aus-bom'",54,144.9165,-37.8657,1,2.14,761008.09,768501.47,753587.78
"'melville_bay_gove_harbour-63480-aus-bom'",23,136.6717,-12.2067,1,3.33,12403.69,12673.77,12139.38
"'milner_bay_groote_eylandt-63511-aus-bom'",34,136.4156,-13.8601,1,3.04,323.29,333.26,313.62
"'mooloolaba-59950-aus-bom'",35,153.12,-26.6867,1,2.52,25174025.41,25427579.65,24922999.52
"'mourilyan_harbour-59140-aus-bom'",37,146.1167,-17.6,1,2.99,468221.5,474155.35,462361.91
"'newcastle-60310-aus-bom'",54,151.7889,-32.9238,1,2.4,20192479.65,20345749.03,20040364.89
"'onslow_beadon_creek-62470-aus-bom'",34,115.1315,-21.6497,1,2.76,647155.49,655817.88,638607.51
"'patonga-212440-aus-bom'",27,151.27462,-33.55098053,1,2.45,45044190.16,45508539.92,44584578.42
"'peel_inlet-plpee01-aus-bom'",31,115.713889,-32.592222,1,2.14,4258.79,4349.25,4170.21
"'perth_barrack_street_jetty-6223a-aus-bom'",29,115.8573,-31.9597,1,2.22,18658.5,18985.04,18337.58
"'point_lonsdale-60730-aus-bom'",56,144.6139,-38.2919,1,2.38,958620.54,967705.15,949621.21
"'point_richards_corio_bay-60757-aus-bom'",20,144.65,-38.1,1,2.17,637090.31,648306,626068.66
"'port_adelaide_inner_harbor-61610-aus-bom'",54,138.5,-34.85,1,3.64,785.28,800.68,770.18
"'port_adelaide_outer_harbor-61600-aus-bom'",77,138.4807,-34.7798,1,3.54,910.79,925.66,896.16
"'port_alma-59690-aus-bom'",36,150.8667,-23.585,1,4.12,154711.76,156897.05,152556.91
"'port_douglas-59040-aus-bom'",23,145.4667,-16.4833,1,3.07,104713.57,106551.81,102907.04
"'port_giles-61685-aus-bom'",26,137.7683,-35.0218,1,3.24,3130.62,3207.7,3055.41
"port_hacking_decomm-214451-aus-csiro",24,151.14608,-34.076911,1,2.44,18870649.6,19090784.7,18653052.87
"'port_hedland-169a-aus-uhslc'",43,118.575,-20.318,1,5,2251.49,2297.73,2206.18
"'port_hedland-62590-aus-bom'",43,118.5744,-20.3176,1,5,2251.49,2297.73,2206.18
"'port_kembla-342a-aus-uhslc'",38,150.912,-34.473,1,2.4,75956498.38,76618776.37,75299944.99
"'port_kembla-60420-aus-bom'",38,150.91,-34.475,1,2.4,75956498.38,76618776.37,75299944.99
"'port_lincoln-61900-aus-bom'",54,135.8701,-34.7159,1,2.89,3443.96,3502.15,3386.74
"'port_macquarie-207420-aus-bom'",30,152.9109833,-31.42679171,1,2.45,700217.57,710234.57,690341.85
"'port_pirie-61800-aus-bom'",88,138.0117,-33.1776,1,4.01,271.7,276.93,266.58
"port_stephens_decomm-209450-aus-csiro",27,152.18224,-32.714881,1,2.45,28803116.48,29107616.22,28501802.17
"'portland_victoria-129a-aus-uhslc'",40,141.613,-38.343,1,2.17,1832279.71,1851836.77,1812929.19
"'portland-61410-aus-bom'",40,141.6197,-38.3514,1,2.17,1832279.71,1851836.77,1812929.19
"'queenscliff-60732-aus-bom'",27,144.6626,-38.2728,1,2.09,842417.19,853370.82,831604.16
"'rosslyn_bay-330a-aus-uhslc'",28,150.79,-23.162,1,4.05,15296.96,15594.42,15005.18
"'rosslyn_bay-59670-aus-bom'",28,150.7917,-23.1667,1,4.05,15296.96,15594.42,15005.18
"'shute_harbour-59410-aus-bom'",28,148.7833,-20.2833,1,3.79,45169.17,46028.7,44325.69
"'south_trees-h052026a-aus-bom'",25,151.3,-23.85,1,3.74,137728.36,139997.28,135496.21
"'spring_bay-335a-aus-uhslc'",35,147.932,-42.547,1,2.15,2649891.77,2678524.88,2621564.74
"'spring_bay-61170-aus-bom'",35,147.9283,-42.5486,1,2.15,2649891.77,2678524.88,2621564.74
"'sydney_port_jackson-213470-aus-bom'",31,151.2585,-33.8254,1,2.45,14170941.73,14320082.76,14023353.98
"'thevenard-128a-aus-uhslc'",54,133.64,-32.15,1,3.19,5462.65,5550.24,5376.45
"'thevenard-62000-aus-bom'",54,133.6413,-32.1489,1,3.19,5462.65,5550.24,5376.45
"'thursday_island-58170-aus-bom'",21,142.2216,-10.5863,1,3.27,22303.18,22763.7,21851.99
"'townsville-334a-aus-uhslc'",63,146.833,-19.25,1,3.58,6200.66,6289.19,6113.38
"'townsville-59250-aus-bom'",63,146.8333,-19.25,1,3.58,6200.66,6289.19,6113.38
"'turtle_head-58180-aus-bom'",25,142.2133,-10.5212,1,3.7,274.67,283.66,265.97
"tweed_heads_decomm-201431-aus-csiro",22,153.549642,-28.16945,1,2.38,131236995.78,132822318.13,129670595.3
"'urangan-59850-aus-bom'",30,152.9083,-25.2983,1,3.47,401469.76,406586.67,396417.26
"'victor_harbor-61490-aus-bom'",51,138.6354,-35.5625,1,2.71,6760.27,6868.83,6653.43
"'wallaroo-61780-aus-bom'",36,137.6152,-33.926,1,3.28,482.05,495.65,468.82
"'weipa_humbug_point-63620-aus-bom'",42,141.8633,-12.67,1,3.35,321.52,330.18,313.1
"'west_channel_pile-60739-aus-bom'",28,144.7552,-38.1944,1,2.13,416723.32,422594.55,410933.66
"'western_port_stony_point-60710-aus-bom'",37,145.2228,-38.3739,1,3.15,30810.25,31304.57,30323.74
"'whyalla-61840-aus-bom'",29,137.5904,-33.0128,1,3.88,228.66,237.07,220.54
"'wyndham-165a-aus-uhslc'",44,128.102,-15.453,1,5.08,18209673.38,18376231.59,18044624.83
"'wyndham-63090-aus-bom'",44,128.101,-15.4533,1,5.08,18209673.38,18376231.59,18044624.83
"'yamba-60130-aus-bom'",25,153.3621,-29.429,1,2.32,641091162.46,647632421.43,634615971.94
